name,lat,lon,potential_ha,static_total_ha,static_water_ha,static_weed_ha,buffer_total_ha,buffer_water_ha,buffer_weed_ha,in_build_ha,out_build_ha,in_green_ha,out_green_ha,impervious_fraction,max_3day_rain_mm,peak_30min_intensity_mm,flow_accumulation_km2,flow_direction_code,encroachment_pct,sar_flood_freq_pct
Abbigere Lake,13.079431918151192,77.52858760777931,9.899677234894996,5.476681093900594,1.2069153976390565,4.2939707005085666,7.800793840038824,1.210250320180257,6.614748524105596,0.399088900273641,0.7652909784588783,4.2044063755349566,4.753039879905351,0.3266737887364875,81.43333143445973,7.368333339691162,5.506420135498047,32,4.031332444525643,17.00598994656837
Agara Lake,12.92076388508159,77.64136384676314,26.72469894477696,22.840236345494088,18.592973515327305,4.4614193589673015,28.247326586764967,18.66137890611736,9.807158149702783,4.377905755471123,2.0802542066621474,4.495162939986186,6.868989231646668,0.023121467190955966,81.65999789815396,7.086666504542033,0.0083355968818068,64,16.381496998403925,75.1817084258293
Agrahara Lake,13.089486907464831,77.62484842909419,4.2667081689094095,2.328796247991425,2.0337600129839326,0.29959229845383584,3.1404075474618156,2.07347997525533,1.0717683893400702,1.9530861396196155,1.0993428574396271,0.36992649003571154,1.8801276946782126,0.5394746401837839,84.54749807839592,6.272499720255534,2.7988803386688232,32,45.77501113976664,36.1084884275784
Akshaynagar Lake,12.871746433650207,77.6142692467821,1.1875241815095785,0.8652119366086074,0.40434078216652464,0.4673310824460298,2.402743871165755,0.41643731610915236,1.99276648306055,0.22626844174553362,0.26267129083371626,0.5258186742535759,2.176430482176238,0.9459378907942321,86.14666446531191,6.710833152135213,0.1584077477455139,1,19.053796568411904,7.429797718050908
Allalasandra Lake,13.091179583935364,77.58723823075299,13.948384854359341,13.405725105688555,12.030288524179396,1.809916261396222,17.931255583826204,12.386823225430755,6.072076467994241,0.369328806563234,2.3005983058161514,1.8424098981695245,4.91052631059734,0.18413730931535666,81.43333143445973,7.368333339691162,0.0083300024271011,32,2.6478248945633753,67.95580580376054
Ambalipura Lower Lake,12.916994280641036,77.66490178165023,2.194087861926509,1.71764489644917,0.6297312315622965,1.1411986550703859,2.550448386705685,0.6593908730440825,1.9443425038451154,0.26163759085212657,0.6142314094698039,1.2539869440036353,1.9640651493416579,0.625074492071586,81.65999789815396,7.086666504542033,0.0833573639392852,1,11.924663336973062,8.564986008701156
Ambalipura Upper Lake,12.913065011240976,77.66311421625305,3.4347974712147415,2.187649444932626,0.32935234253677664,1.9934904234767739,3.2850076338061167,0.4025719235064937,3.0180722898131727,0.08479496491974471,0.5945772599328735,1.6565520648746865,2.4442705703944783,0.4667290276600193,81.65999789815396,7.086666504542033,0.5168262720108032,1,2.468703486315202,7.561355636575016
Amruthalli Lake,13.061659792048138,77.5981920127002,7.4344396230929535,4.025925512783576,0.5825750656127929,3.517584361482509,5.3313411931056605,0.5987571154785156,4.806817991938871,0.24573156503764634,2.253503150676154,3.3036931702178767,1.729693977203868,0.5999282597304777,81.44179301241782,7.365355823501399,3.21570086479187,1,3.3053138837035103,13.223370285754516
Anchepalya Lake,13.050783425012762,77.47953064137124,21.46932714149624,18.241460349404324,13.659200561708937,4.808116094689464,22.51718489215825,13.672510057067873,9.077068841183731,0.6401109575343911,1.618864205133276,5.681424314522335,8.9817379433122,0.06863599984443473,79.33416453904162,7.6899999777476,14.922003746032717,32,2.981513828149625,76.4667217050867
Andrahalli Lake,13.01093089516202,77.48615165564563,3.549735056047627,2.1168359893404896,1.6544556629180907,0.5398572267774195,4.119096236907361,1.6544556629180907,2.5421174743442916,0.4411880259285721,0.2777586687260048,0.5253494483718374,3.0384131252109303,0.683176769367306,79.33416453904162,7.6899999777476,2.2581770420074463,16,12.428759300695614,24.17274504770677
Arekere lake,12.88291706899391,77.59856251865409,7.510894383568853,5.220696991256514,2.1405424371372797,3.208359435806773,7.362398845752892,2.158205202404845,5.333386473243066,0.08455164518468518,2.3712942382204147,3.351593141627592,2.609298096082601,0.4673718793621338,85.77973531294008,6.722543636946086,2.2676568031311035,1,1.125720065637641,27.74575427442612
Attur Lake,13.111343332824775,77.5628320143328,22.506600180840596,12.81456721861796,4.817508926623476,8.334386581382995,16.580539884763226,4.871968157069886,12.05223997161017,0.7159722559187146,1.0879110454644096,7.928259040528836,6.859201406246007,0.0026115844874439165,84.31574830661218,7.978333155314128,0.0083293439820408,4,3.1811657476734623,44.87499305159033
Avalahalli Lake,12.865453013013484,77.56633929223811,5.794656285131118,3.6674625554038642,3.0245077627932484,0.7383170011233663,5.220955115201861,3.0487014114928406,2.2707699483430157,1.9884336453202194,1.3751119028667376,0.48487298764895775,2.6765018854442926,0.5079079051399588,85.75499812404935,6.723333120346069,0.0083374083042144,8,34.31495411423227,35.51023916077654
B Channasandra Lake,13.006294115455495,77.66176829358362,1.7015233101100549,0.7127249181485643,0.0032282667795817,0.7094966513689828,1.8343504660886876,0.05486160028195842,1.7794888658067292,0.06280559654933954,0.5471720045391406,1.122822085854524,1.5869196382679658,0.9605834932821499,84.54749807839592,6.272499720255534,0.6666132807731628,4,3.6911393559032266,1.8807849553716496
B Narayanapura Lake,12.996369876041287,77.68277699822079,1.2442216766716452,0.6861849062945796,0.18240412000020342,0.5279937224414302,1.119460419970743,0.18950657981872557,0.9541667762990714,0.18152417634752058,1.7336648599452593,0.5064838386640361,0.562543978988049,0.8791607678630106,81.65999789815396,7.086666504542033,0.0083331260830163,1,14.589375812283448,7.247195369635692
BEL Lake,13.05633656442575,77.56435145747977,5.780303236975574,0.8201344810475867,0.006455267588297516,0.8136792134592893,2.301612110869464,0.008657652566947166,2.2929544583025168,0.058470814844767245,0.6465425910116956,3.6834459133003583,4.112528009662007,0.4443731456777085,81.43333143445973,7.368333339691162,0.0166622549295425,8,1.0115527239252746,5.2645652617677525
Bagalagunte Lake,13.058842393938042,77.49937518559601,2.9891722814223356,1.6756231734910356,0.5067330083211262,1.1785729652085648,2.5305439613865874,0.5067330083211262,2.0334937531041164,0.15886112672394395,1.3825000251814898,1.2772737836137162,1.1074386457974303,0.921577326582807,79.94080980542886,7.59704045949416,0.0166621841490268,64,5.314552383322422,13.721203545776238
Basapura Lake,12.868784605815643,77.64395196126645,2.603189689351999,1.8656604635854486,1.4865724757699408,0.40331300371007983,3.1183361444540583,1.5132674453720394,1.6292937149765911,0.7741422499503341,0.5922502656739678,0.3653763146114974,2.241218158919391,0.48043818706783786,86.14666446531191,6.710833152135213,1.3172998428344729,16,29.738218967171697,18.968226651394556
Basavanapura Kere,13.0102060073038,77.71311405750563,3.82266225650563,2.5371999170500312,2.082255737828772,0.5098238115353054,3.1246400274528554,2.08692083337522,1.0925988263916813,1.0965992023632574,2.021475179869708,0.33408223694096967,0.8848155085175957,0.6429725140254933,93.87749750073999,8.144999821980795,0.0166653208434581,4,28.686792836510755,32.823670068499204
Basavanapura Pond,12.84469348669497,77.5892059273374,1.672612217254639,1.0043199051372054,0.4941667053985595,0.5148403066403259,1.9684505437853448,0.5040413030691707,1.4692546960130082,0.7248165469694449,1.0108237376787774,0.2794273069773156,1.154388770264769,0.9301722071648505,85.75499812404935,6.723333120346069,0.3251890242099762,1,43.33440468102826,11.295312453979504
Begur Lake,12.873969501844536,77.63054335089946,42.77824065503287,33.19044807019851,16.563823520972058,17.2348310542083,37.41178952046163,16.60500156695048,21.428547360173145,2.137416128616832,4.004247308050417,10.393041190918078,4.7043388802696695,0.0034284491119830006,86.14666446531191,6.710833152135213,0.0583600476384162,1,4.996503119081323,64.80320284868979
Bellandur Lake,12.934814572221791,77.66379709908344,315.40890498445964,177.4898502433498,43.61569722213496,143.10409591799177,199.28639936107467,43.622009739884525,164.89493402731804,5.621874184733872,4.20431912033779,51.48301717929419,34.96751181245595,0.0,81.65999789815396,7.086666504542033,114.82073211669922,128,1.7824081996070669,31.725350492079343
Benniganahalli Lake,12.996943369030944,77.66575216261633,5.834561927771472,4.412243901381149,4.075821320452722,0.3675353236055063,6.044442637100719,4.176901579356474,1.9014390715585348,2.2698707224343493,1.8940637899909925,0.3213061406563154,1.752565914524552,0.4388564579245342,81.65999789815396,7.086666504542033,1.799878478050232,4,38.90387574138463,38.57423210048116
Bheemanakatte Lake,12.915130085030173,77.52870815699806,0.7108136510662005,0.2786734424421522,0.0,0.2786734424421522,0.7145754682433682,0.0387022853108325,0.6758731829325358,0.07401692716760568,0.6503722960912167,0.35954188067018594,0.6570476731867573,0.9986642665446125,82.41583149554208,7.633333206176758,0.700210690498352,16,10.41298616825695,10.808253993288991
Bhoganahalli Lake,12.922956546158623,77.69897954422261,3.678421464221431,1.8633548993907254,1.2863014336405236,0.6190346427623276,2.636315122658723,1.2884986417134603,1.3897976579573885,1.4662366768277237,1.1748084165540706,0.2864086346266005,2.160233939422407,0.2904652198620773,81.84929779849404,7.0513411467499125,0.1750483065843582,64,39.860486110393694,26.578120741955463
Byrasandra Lake,12.97845422714567,77.66201300911695,2.8316113574517936,1.8461799891522972,1.2686629821114137,0.8349200282272639,3.8397934272182694,1.372674973126081,2.7415508267575937,0.6149125887752359,1.161726163575914,0.6228126187148748,2.3961581942265333,0.7025544400184688,81.65999789815396,7.086666504542033,0.0166674852371215,64,21.715995281520705,19.346052668081285
Byrasandra Melina Kere,12.979184836554728,77.65546759551191,4.0550177963316685,3.6345003727931604,0.4778346187591553,3.229309491699817,6.404036602944767,0.5988063375116486,5.87787400309893,0.04681494890848792,0.46419200572394076,2.7653272605447206,3.9232019468898387,0.7550223682728833,81.65999789815396,7.086666504542033,1.000026822090149,2,1.154494289786807,8.92402372814175
Carmelaram Lake,12.91761871849594,77.71071170283464,2.088082682677624,0.6876124558637033,0.11141377271016435,0.576198683153539,1.1207754447986877,0.11423791316063574,1.0065375316380518,0.4748587714590435,0.4287999854318456,0.9793083884434917,2.4672381924293862,0.345310837559995,82.73174809043606,6.886666615804036,0.7919002771377563,1,22.741377791137793,11.079473226279765
Chandrasekhar Layout Lake,12.8628251585274,77.60781823224278,1.5138408579418705,1.1983448864426955,0.1292030172983805,1.093367440077339,2.2136971735970494,0.12924735175637633,2.108675392773697,0.05068052674885668,0.7420179926903421,0.9993722801088819,1.3371180569986578,0.9423295541831814,86.14666446531191,6.710833152135213,0.3001509308815002,32,3.347810734726698,17.23614492098105
Chelekere,13.026594703315864,77.64510807725,2.9414358670911604,1.912721203994252,0.7556512711837868,1.182894002787272,4.519255952334934,0.7802601780954997,3.764819844216241,0.222074112860985,0.6602132604596505,1.4008161243373893,4.1540225181779045,0.7726560868657342,84.54749807839592,6.272499720255534,0.0083321304991841,4,7.549853979328747,11.486989799497035
Chikka Beguru Lake,12.885280762169122,77.63646809113118,9.830310219391468,5.515735648249209,0.0,5.515735648249209,6.925472784666673,0.0100883139546712,6.915384470712002,0.061081358145420796,3.1694164813252357,5.991423122406007,2.0423158971774034,0.4454414273805208,86.14666446531191,6.710833152135213,0.0416834987699985,8,0.6213573812241499,2.4231301451435976
Chikka Bellanduru Lake,12.913026726682936,77.71943122970869,20.100017533201324,5.717079116437826,2.3849447390238443,3.3547405292491046,7.953581921205708,2.3849447390238443,5.591243334016988,0.9731028606853608,1.7914811129685944,5.571111614193389,5.8407362751420955,0.053284916704556096,82.73174809043606,6.886666615804036,11.737753868103027,1,4.841303541541612,27.6462361547224
Chikkabettahalli Lake,13.091796866719235,77.55472093578341,1.86306800114052,0.5215245058431189,0.4959411987603879,0.02558330708273095,0.9120383390533847,0.6163906691233317,0.2956476699300529,1.5223097135436612,2.5248530545068886,0.025975631777196116,0.2901423846096463,0.7942804984993656,81.43333143445973,7.368333339691162,0.0083299810066819,2,81.70983091394109,20.77646375960124
Chikkalasandra lake,12.915288997678596,77.55313827002516,2.1610864384131334,0.44477926901574233,0.0,0.44477926901574233,0.6753531433853449,0.012949300178079015,0.6624038432072658,0.18325974090276975,1.9920609466413108,0.7685374470485113,0.3187559452081817,1.0,82.41583149554208,7.633333206176758,0.0333429388701915,16,8.479981996339571,2.2289294541397795
Chinnappanahalli Lake,12.965899542357478,77.7071336932344,2.6950024717682495,1.9262624875720658,1.4574698069803074,0.4971046034260669,3.4637418303550764,1.5734085009456458,1.9210066934129302,0.34630214258929476,0.9644936994759553,0.6287691903417252,2.318126228137547,0.6881904878910272,82.73174809043606,6.886666615804036,0.0416704341769218,8,12.84978942383227,17.354980455105192
Chokkanahalli Lake,13.08461334299774,77.62922109689285,2.022320230141434,0.45589922443364966,0.4146471392149083,0.04125208521874118,1.0284739288245308,0.4179313624064127,0.610542566418118,1.5278267135530357,0.9518210332055187,0.0543256796713436,1.1465483131533354,0.6160098113856286,84.54749807839592,6.272499720255534,0.283231109380722,64,75.54820897213617,21.293091265875905
Chudahalli Lake,12.838923505762915,77.53328950346743,50.624026579206905,41.00561535746706,33.472318081292045,7.722008609518412,43.30942248346317,33.51036115341187,10.002575619652943,1.2725638183533912,0.18756353681526927,10.829158227071835,14.175372686374146,0.0,85.75499812404935,6.723333120346069,6.936830520629883,4,2.513754642496333,93.18747502663513
Chunchagatta Lake,12.88777293723124,77.57546127645824,6.474151125320735,3.9153527345964023,2.819509515423744,1.1168366854863385,4.9581347233342195,2.848976199962641,2.1301519896852583,1.2256342144555983,3.3320859354565187,1.5099940302461115,1.3111755697941,0.7037603717973138,85.75499812404935,6.723333120346069,0.016673307865858,16,18.931195622883752,26.00882497829285
Dasarahalli Tank,13.040938080379156,77.51222178496144,5.82432466497085,3.4593735258364213,2.8883276226662034,0.5835331450543372,5.008429844446618,2.898226323713415,2.1231148108383873,0.9864109348067739,1.6980524324329849,0.7391650757549012,2.0653486391917713,0.6106232729505678,81.43333143445973,7.368333339691162,0.0083316499367356,64,16.936056822850738,34.27247240495879
Deepanjali Nagara Kere,12.94922037326571,77.53094389810916,1.4157398143513997,0.8096905309151047,0.2872088940235213,0.5257106238860085,1.7424808039232644,0.32570344076917057,1.420006350148519,0.15983487408955888,1.0864800712405935,0.6281391944984984,1.2574800842190414,0.9549642939414881,82.41583149554208,7.633333206176758,0.6084211468696594,4,11.289848068784083,8.122198262930413
Devasandra lake,13.00146711300279,77.70311597111605,3.4236964712045705,2.768296517900952,2.396184630959704,0.42872790532779076,4.635793051922367,2.5003014864304487,2.2000581350109623,0.5670583664793127,1.4406914748811408,0.41734017903895154,2.0308870477993044,0.6785454355616838,93.4504748662023,8.096789805673493,1.133295655250549,32,16.562752313139566,30.295141908576273
Deverabisanahalli Lake,12.923182120565428,77.6871052288003,3.6844969305988386,3.1423328866891302,2.7448169009234857,0.46391317899367385,5.157266764438105,2.8563297960917153,2.383284470101151,1.295094923206903,1.1613061342954947,0.4774954104758867,2.1891836150240436,0.6412861171353262,81.65999789815396,7.086666504542033,0.8168903589248657,128,35.14984399773708,23.994462365737608
Doddabidirakallu Kere,13.043049587492616,77.4955523373924,11.45499852283553,4.568080753723344,0.0,4.568080753723344,6.26223728303149,0.0,6.26223728303149,0.8193551474188516,1.072519263144599,3.5166018203191833,4.825030126711774,0.2919307133353802,79.33416453904162,7.6899999777476,8.456657409667969,16,7.15281757379076,11.351976658932164
Doddabommasandra Kere,13.064915240036932,77.56320714849547,33.54657069409537,32.00921503400115,11.019804748796448,21.625261748938957,38.70909165559009,11.16422693639568,28.22264227822049,0.5240576927105275,2.0414753403996486,13.811004683773062,9.660093304196026,0.0,81.43333143445973,7.368333339691162,0.0249926298856735,128,1.5621796263150332,49.62883236733547
Doddakalasandra Lake,12.882075315569105,77.56165804962087,5.803743398569146,3.8251030987234693,1.3451993985688453,2.840011102426068,5.399448149066501,1.34845457127889,4.412734896553887,0.8464756544758915,1.2869824755400614,2.4402837013613627,3.0861898921078947,0.6689008097808667,85.75499812404935,6.723333120346069,0.3584813475608825,8,14.584994482777812,14.671027855590854
Doddakannelli Lake,12.911890840928043,77.69348851887294,6.620274250452378,5.630636351334812,4.565415942685994,1.2047140139595973,7.9903331830163085,4.663338131078084,3.4836237875441007,0.7261340399105097,0.6147851780281816,1.2096910958897207,4.629462531950707,0.1425464938501444,81.65999789815396,7.086666504542033,1.542150616645813,16,10.96833775218438,45.0402410536624
Doddanekundi Lake,12.975386793991428,77.68804390617512,38.04355931065581,29.700742441587767,3.0462406734466554,26.91602310692183,33.57048983661676,3.0462406734466554,30.785770501950825,0.8739820101474938,2.3573565140493553,8.69528779653661,5.4685723303970635,0.0,81.65999789815396,7.086666504542033,0.0166676118969917,4,2.297319246631836,28.274660219767828
Doddathogur Lake,12.85746345629954,77.65968275948435,5.501957242000803,3.480888566099678,1.9108682823420509,1.6007826955139561,6.871510454495499,2.6094410481641184,4.315366886342367,1.1451511656413362,2.8236863187428387,1.7755576401734199,3.2162808140424333,0.5402816272433592,86.14666446531191,6.710833152135213,4.3773980140686035,2,20.81352353848716,32.58493039630026
Doddkammanahalli Lake,12.855596811258197,77.60374142364677,4.814579989731731,3.1350159552465704,2.292665255757251,0.853656294378642,4.941096092837963,2.357635948726679,2.594765739000607,1.4905937708581662,1.700143369770923,0.6022731505066116,2.9483873546395896,0.3165427318911835,86.14666446531191,6.710833152135213,2.76820707321167,16,30.959995971345823,29.743701339523277
Dore Kere,12.902693608493903,77.55080031154503,8.915712450459797,7.973703586093677,6.131966675561144,4.4923366934443445,10.558047784690109,6.136190443166097,7.073337342846441,0.10367546540802597,1.0164345763975653,3.992228322446735,3.872794664522557,0.27346986217059516,82.41583149554208,7.633333206176758,7.544248104095459,32,1.162839941105091,51.76033126238095
Dubasi Palya Kere,12.930906716779104,77.4948486538195,4.0859105861110345,2.117253452915367,0.44674027633916324,1.6705131765762034,4.150826141285117,0.45370526796976723,3.69712087331535,0.5249565340782617,0.8964368463763067,2.3211872333990367,2.6170599768350638,0.7272249765015948,85.83333125337958,8.099166552225748,0.0250057429075241,4,12.847969210650662,11.322802381655196
Gantiganahalli Lake,13.138236915569406,77.57742306465795,19.928855241875755,11.519487232005796,9.076043095348084,2.576879025951709,14.299233774525257,9.082818926493326,5.350317908945023,2.1290232640464635,0.6335051062330858,2.635550800298553,7.418604897990012,0.0035202730283248,84.31574830661218,7.978333155314128,0.6829474568367004,128,10.683118715082172,67.90673854867453
Garudacharpalya Lake,12.99079880972868,77.69592357748239,1.1024244912270942,0.6210294405369977,0.47110227368273755,0.14992716685426,1.1763179572824713,0.500785162574419,0.6755327947080526,0.2653985461261225,1.3188831985967298,0.14884469221227306,0.694131254235062,0.9326503160183531,81.65999789815396,7.086666504542033,0.1166653484106063,2,24.074079289612925,12.056699204103095
Goshala Lake,12.98677031608552,77.6979247502631,1.2665642587788897,0.8746545596747305,0.4228527578979691,0.45816386917513174,1.7585715277304057,0.43100633646647135,1.3340222148845398,0.4096982042584389,1.4124793150593877,0.44895938708286653,1.1259166232304791,0.7623261441702063,81.65999789815396,7.086666504542033,0.0166669189929962,1,32.34721029104627,9.097815514914268
Gottigere Tank,12.852978396088687,77.59026096996043,12.004251310873594,5.0614675387618115,1.9528207344932802,3.7046192063325374,7.08264570555394,1.9575013224283853,5.721116785189561,2.337085102466259,3.0200039011981445,2.5234093529994195,3.432120596211252,0.2912217739581445,85.75499812404935,6.723333120346069,0.0083378171548247,128,19.46881185625712,32.258451561563696
Gowdana Kere,12.907623040353732,77.55623715379377,2.4786310116218124,1.1854016790621889,0.18077034262812997,1.0078608438803478,1.7550821247165656,0.187381349574569,1.5709302825882852,0.5816475848034628,1.8075490882265184,0.8209671442926944,0.700311181883469,0.9716673630141194,82.41583149554208,7.633333206176758,0.2083997428417205,2,23.46648541377203,5.073508975394882
Gubbalala Kere,12.880670207103108,77.54079173187408,1.9608231508202654,0.7668741235910055,0.526079277775085,0.2504844001575544,1.7899130561000849,0.5345275303216074,1.2650750801201116,0.6885343085729062,0.3385387738675385,0.3694886768211414,1.9251243505470423,0.9154136608865562,85.75499812404935,6.723333120346069,0.8003511428833008,32,35.11455422611028,10.366011964494032
Gunjuru Lake,12.916958543452628,77.74024489236726,22.03662371149998,1.6246260237345975,0.04844083620707193,1.5761851875275257,2.431615587908676,0.04844083620707193,2.383174751701604,1.355497164017421,2.066143636547912,5.50106145655364,5.754862253365612,0.03743991775362537,82.73174809043606,6.886666615804036,0.0083357188850641,128,6.151110904117514,13.145134521080609
Gunjuru Palya Lake,12.919058746365748,77.72142862960163,12.819448735931994,3.7645607561084033,2.0077183165706067,1.8682554282005162,4.582591202923146,2.0129613026891966,2.681042888896668,2.0239496490643067,1.5896664584310694,1.5710212900179197,3.5741588168100584,0.11013803604029777,82.73174809043606,6.886666615804036,0.0083356536924839,4,15.78811765432098,26.97437382844961
Halagevader Halli Lake,12.92403321624875,77.51497862796384,2.841294239783194,1.5083516372206944,0.5392935541788737,0.9868192495508131,2.8280790274980334,0.5792228201373729,2.266617373869653,0.42123386458353274,0.8868382916778366,1.1688759649289204,2.2792545036360807,0.8639686684073108,82.41583149554208,7.633333206176758,0.025006640702486,64,14.825422115228555,10.878543498895969
Halasuru lake,12.982697388966644,77.61971614840355,37.82345834809546,36.33114863838694,33.52969812534258,3.511176863505046,46.42163438951829,33.98717828415216,13.285181602294026,1.9968896372921012,1.7121409463790196,3.9969793594121015,11.660372389169325,0.0,81.65999789815396,7.086666504542033,0.2833359539508819,4,5.279500406637595,89.70220411038603
Haralur Lake,12.896628304542794,77.66280255958233,7.932285794605927,6.822697730123978,6.095597764600865,1.8788747797832615,10.479216555262544,6.147614132750268,5.505579468588736,0.6870922475203969,0.8713362141189077,1.3715922232035718,4.396004927130805,0.3924111947780369,86.14666446531191,6.710833152135213,0.0083363987505435,64,8.66197039934731,50.320230764048496
Haraluru Lake,12.891641672794607,77.65513003508902,3.2161476752187688,2.5358190335930715,1.839765595862694,0.7934071886254604,4.171020604386174,1.8867673721333424,2.4005229495329012,0.09794261871288024,1.402947044826832,0.8230445211552637,1.811005568116131,0.798005167577598,86.14666446531191,6.710833152135213,0.7086127400398254,2,3.0453395989106125,17.67570046718665
Hebbal Lake,13.04705059740462,77.58628405047017,45.28392121431239,39.84251730619594,32.669093943904805,7.938679548373251,49.46436212314831,32.80041354522705,17.48541220783459,3.231322088199192,0.8866857717202379,9.058555416187458,17.024999850742127,0.0,81.43333143445973,7.368333339691162,0.0249942205846309,1,7.13569408644299,91.5436936159244
Hemmigepura Kere,12.873692674348904,77.48348887477314,5.563321210856716,3.911532132314045,3.284386527894961,0.6452966500794654,6.738515811027078,3.3252230002085366,3.439132404197244,3.0110249907350224,0.5794361965194403,0.7156775078991657,4.975588375507928,0.36690672901733173,86.27499802270904,8.016666571299234,1.2589259147644043,32,54.12279601722554,37.24706958102736
Herohalli Kere,12.98901708788825,77.49011358408788,9.856256515221688,8.83433470240774,6.9871989202801075,2.12489934449788,11.822814065710332,7.0247885640816286,5.080517842988157,0.19205027943629846,1.8449812867971176,2.294065186650395,3.949243087067447,0.3151184502275644,85.83333125337958,8.099166552225748,2.458284378051758,16,1.9485113758930903,58.91179329493759
Hoodi Lake,12.986949369202017,77.72290002806685,8.80726070838778,6.939469837701335,3.9870900779245417,3.6666409765395613,9.09840437445946,4.016266984176636,5.802095992425158,0.12282857840045602,2.554334354945663,3.236214957694259,3.3876256038595955,0.2808707945106758,82.73174809043606,6.886666615804036,0.0416672267019748,128,1.3946286191287338,36.54046569702688
Horamavu Agara Lake,13.03551737055676,77.6587825169042,14.386911314951588,10.853421067986583,8.737573143621209,2.805262765330396,12.110086041733483,8.805586863924912,3.9984963591287648,2.3811679208593426,3.142261066393385,1.8692393749665905,1.414737619563084,0.21657828992279962,84.54749807839592,6.272499720255534,4.124431610107422,64,16.55093208494804,60.88826366539255
Horamavu Lake,13.0234630286734,77.66730636354119,4.614853544395296,3.349800516689525,0.6232913937731973,2.7378073036872017,4.9712086921128416,0.6263548674549776,4.356152005428737,0.8273169845286849,2.086002838530696,1.9319094959797567,2.0965886710781523,0.7547713000353147,84.54749807839592,6.272499720255534,1.2831885814666748,16,17.927264138933616,15.147558770920153
Hosakerahalli Lake,12.926506532686465,77.53406006009116,14.96639107261808,9.294542677701566,0.022604814910888667,9.275167122408801,11.550742423316606,0.025834061940511032,11.528137620994217,0.17108112571716308,2.6856447653961184,5.864265725168962,3.4588234053263953,0.15655785292789548,82.41583149554208,7.633333206176758,0.0083354180678725,32,1.14310206707191,5.326556619000396
Hosakere,12.926777467658605,77.48125017978349,11.925200619868852,6.1097887116331195,0.7572678716023763,5.352520840030743,8.445872334628637,0.758882493464152,7.686989841164485,1.0438715737954936,3.6724843492665005,5.540857810162811,4.636181429058399,0.3724144886933795,85.83333125337958,8.099166552225748,16.71013832092285,4,8.753492767713066,24.980801497929686
Hulimavu Lake,12.870360310792742,77.60423495967207,41.09662930671246,30.589088817324665,6.758721227010091,24.119450859942457,35.19341557570814,6.7674231550702855,28.715075690265735,0.8914722650076669,2.722852672876595,9.322984950174067,6.471502924082141,0.0052142860068902334,86.14666446531191,6.710833152135213,0.0416866056621074,128,2.16921017622742,31.19625196420383
ISRO Layout Lake,12.897852980860497,77.55454299205834,1.691910455097872,1.1936790973279374,0.6957267991683063,0.4979522981596305,2.493677221239875,0.7118939655009751,1.7817832557389004,0.16600322286019914,0.2566922112064735,0.5169691709131977,1.9857123988167749,0.921265587892827,85.75499812404935,6.723333120346069,0.9670432209968568,64,9.81158443462638,8.573860863333723
ITI Layout Lake,12.902307413057462,77.6393836670545,1.7001640024461937,1.068629469800463,0.9605399676453835,0.1158214924935733,1.8288727872177821,0.9837803088912466,0.8531664239442115,0.9047886067164801,1.414485210917354,0.15153689007378868,0.8985579648904238,0.8724394185160609,81.65999789815396,7.086666504542033,0.2334145009517669,8,53.21772519678522,10.853212230799944
Iblur Lake,12.922434059675629,77.6668228891874,2.5612345260171323,1.4709327253708182,1.238357737428254,0.34052941849303403,2.8760692163684323,1.3504787818230521,1.6547634413660586,1.1066895586589738,1.2517508087731655,0.32418649982128267,1.4914729644934959,0.8136898307011265,81.65999789815396,7.086666504542033,1.3253920078277588,64,43.209223810516875,19.244281393628956
Jakkur Lake,13.086761975992909,77.61032801732185,49.63010447345808,44.017478869632875,37.62514757572996,22.93112185623418,52.026239236060746,37.656198814151246,30.932257090610676,0.5103781525575724,1.7893349543537818,13.619681398572242,15.806170246250423,0.05576430715956601,84.54749807839592,6.272499720255534,0.0333207324147224,128,1.028364050352785,83.27748674341757
Jogi Kere,12.863048062208511,77.5384474629139,0.5836929358299104,0.16439169162376252,0.11017711568695264,0.05421457593680982,0.9014306043323194,0.11143747736612952,0.7899931269661898,0.2832899184437671,0.2977303701138963,0.06747054006738595,1.1151409168048934,0.9264424076503704,85.75499812404935,6.723333120346069,0.1167238727211952,8,48.53406663916153,9.148299597416909
K100,12.931378788142233,77.63586328483962,3.105362301884071,1.0386215701493404,0.0016272501772213001,1.0369943199721192,4.980166822314292,0.3518617161968954,4.628305106117397,0.8841067208822415,9.316700933153731,1.211892081163194,4.397451183309117,1.0,81.65999789815396,7.086666504542033,0.0083352522924542,8,28.47032439164475,2.9314748350940056
Kacharakanahalli Lake,13.01783394601104,77.62623351253467,6.220773588238885,0.8450203045514675,0.011298431015014649,0.8337218735364528,1.524931829558728,0.02243864500108105,1.5024931845576468,1.668182175328872,2.8317415821239984,1.5032915732459775,0.7989720905658001,0.9265273367848496,84.54749807839592,6.272499720255534,0.0083324378356337,1,26.816313946592903,10.488330149995624
Kadiranpalaya Kere,12.983758433611657,77.63599700480563,4.8598796139646065,3.2032933361980955,1.5125770313262938,1.779501473710303,4.957703247717066,1.5125770313262938,3.5339113852292736,0.32617232720817607,0.681875003308564,2.0214454357441416,3.1627636558009145,0.5057471793879572,81.65999789815396,7.086666504542033,0.0083335554227232,64,6.711531007289505,14.907879974786962
Kaggadasapura Lake,12.981350433081964,77.67081485026253,11.792143982959823,8.108254775848385,1.7003716613510227,6.469276643350138,11.036183675900128,1.762917462240481,9.33622338859658,1.1030558549255176,2.920801257798438,5.226843031757827,3.714333145226375,0.2893123097114474,81.65999789815396,7.086666504542033,0.0083336411044001,1,9.35415863747494,22.61287314362771
Kaikondrahalli Lake,12.912892311757597,77.67273135244875,16.511430729498784,14.363556248320046,10.632911093143639,3.952147559541688,17.680253846153303,10.712361300986794,7.206871899134817,0.6166261855271283,2.2791560879162556,3.9180969408890447,4.787048521958899,0.2260106905873679,81.65999789815396,7.086666504542033,10.487353324890137,128,3.734541213472701,58.82181280023422
Kalena Agrahara lake,12.865571511226433,77.5897673039016,1.4854003719733744,0.9832053978345284,0.917920492007187,0.06528490582734146,2.183097233904172,1.059453474299113,1.126873805559445,0.89226363337897,1.4866669538764707,0.037284872095444586,1.2643720592917649,0.7858503639654256,85.75499812404935,6.723333120346069,0.2834692001342773,128,60.068897935819535,13.980061377120125
Kalkere Lake,13.04732105033264,77.66433496955227,48.58433546233234,43.088372383439314,38.82162154685375,24.613703224709216,49.521727007859674,38.87656926574707,31.015457492885716,0.5164554047333961,1.279101721843645,10.928264727532374,10.629948366528682,0.008683236869981683,84.54749807839592,6.272499720255534,2.1410727500915527,4,1.0630080659100636,85.11234538787585
Kammagondanahalli Lake,13.06848871782771,77.52410798525513,7.456641703571987,3.625920644540724,0.7289281834720787,2.9292355749915635,5.458322623174332,0.7294091417948404,4.761188237238866,0.10406406792135799,0.8657609192647499,2.980059727685967,3.6359603287241797,0.5066591754780237,81.43333143445973,7.368333339691162,3.449035882949829,16,1.3955889535567698,22.79840387955397
Kasavanahalli Lake,12.904417839227897,77.66763416782703,13.04400757321826,12.185462712183442,10.355023122274362,2.0931424827585645,17.048168275926876,10.563506629945342,6.768863224757575,2.6165729145319325,0.44138860644321815,1.8295591961290938,7.68856409223519,0.02717899408435495,81.65999789815396,7.086666504542033,0.1167057007551193,128,20.05957831475226,76.86431484874929
Kattigenahalli Lake,13.114706041869079,77.62870154197827,5.4566227068762645,4.547413468640893,3.7160666794965156,1.4050742166885668,6.7537275465642415,3.7205969596862793,3.607516043980418,0.903653576963836,0.5404777976675593,1.5693983323973608,3.6700624862112385,0.2933637631467742,88.04574814951047,7.367499828338623,0.1582567244768142,64,16.560675449029674,43.987908603427805
Kempambudhi Kere,12.951775134929937,77.56030464643523,7.058608855139045,6.45636455419553,4.977343562665453,4.129074412234438,10.360913225346485,5.011507265233059,8.014907756708682,0.0032859344841452164,0.37462904139200837,3.113632369401222,5.76411519411374,0.40241242889262935,82.41583149554208,7.633333206176758,0.0166692100465297,16,0.0465521542782878,41.55261154866481
Kenchanahalli Lake,12.925820503960267,77.5086028918082,1.5453444912689804,0.9728371512219796,0.0,0.9728371512219796,2.535473352343491,1.2663900337967217e-05,2.535460688443153,0.003191299175686283,0.24935722834169471,1.3373278173558851,2.2750733573634325,0.9045313010365247,82.41583149554208,7.633333206176758,3.8344247341156006,64,0.2065105349465286,5.75731653993681
Kengeri Lake,12.916559979018045,77.48804556616695,9.77527636604458,6.071784809496511,0.012917671585083,6.0685553874994405,7.911821673903122,0.05995308727887715,7.861556836212258,0.16996212711209555,3.707319549599442,5.515718462147928,2.5712037416051725,0.4998837782017058,85.83333125337958,8.099166552225748,0.0083357477560639,64,1.7386938307184474,8.908438189366658
Kodigehalli Lake,12.99951764050912,77.7284285287259,15.38054554175882,12.125534946574291,11.849036294766094,0.3025344170584086,14.312076235668705,12.076160978137745,2.292411546466304,6.625207286640239,3.2219231170215488,0.1895295754341674,2.9903789012220794,0.18599373541333986,86.53062638256732,7.315552509900456,6.816653251647949,1,43.07524247857481,69.55987301676797
Kogilu Lake,13.110236255646962,77.61904586051043,24.117815672179574,15.100112897902344,3.654005356461768,11.773704692597732,18.47425505552803,3.6593582499186197,15.145657610357945,1.570245115107119,2.3611228775443287,6.399217719350081,5.6552082572174065,0.0,88.04574814951047,7.367499828338623,0.0083293439820408,8,6.510726910142327,44.87575615818681
Konanakunte Lake,12.891298765845894,77.56843423601899,2.033049715438544,1.1488546680964051,0.0,1.1488546680964051,1.9412566163595362,0.0,1.9412566163595362,0.31048963975993643,1.1386529994795056,1.3912036818749922,1.396333269683738,0.9091202359555739,85.75499812404935,6.723333120346069,0.0416826829314231,2,15.272112501831344,4.068249223038392
Konasandra Lake,12.89236481932304,77.48386915601256,10.504325276348638,7.904312505668691,5.361308307520549,2.6205170609258515,10.16849799249188,5.361308307520549,4.88470254774904,1.4496239604082295,0.7418126018564061,1.9537985090936403,4.607890051871903,0.22019835502969495,86.27499802270904,8.016666571299234,0.0333461463451385,16,13.800257724998083,41.85342870709928
Kowdenahalli Lake,13.012599350255114,77.68515207362891,5.743700005164054,4.454339082647586,2.969658813524433,2.4868369050074555,7.578452222476037,2.9699436524105693,5.610874088193605,0.1892413216375213,0.21059580830243677,2.1083281733145114,6.558050932785233,0.0062981922253714335,84.54749807839592,6.272499720255534,3.391390323638916,64,3.294763331430575,31.840913832481863
Krishna Nagara Lake,12.87403521925412,77.57974859667902,4.421779224144433,2.770499086692162,2.670206791858549,0.10029229483361334,4.383426257412979,2.6937663983662925,1.6896598590466863,2.8010307804890555,0.9444168905051239,0.1347068356617447,3.034443859465855,0.6168724229258973,85.75499812404935,6.723333120346069,0.8003767728805542,128,63.346237758648506,32.09690693518922
Kundalahalli Lake,12.96967141322613,77.72046450298015,7.485939865890203,5.657585590218439,4.747831405045254,0.9775445705244276,8.990205993185107,4.757530328877767,4.300478711233201,1.9908976599355463,1.4603823006239747,1.13309468413808,4.542743575724682,0.3571330581422966,82.73174809043606,6.886666615804036,0.0250020548701286,1,26.59515966735321,41.3099142350808
Kuppareddi Kere,12.845056879457092,77.52361784126207,3.41807241314757,2.980247241386961,2.1310227754400914,0.9052669356367321,4.147937360534668,2.1416891264597577,2.064393568954468,0.1928615660942925,0.0025589120767630165,1.0414202434295454,4.952582967091483,0.0,85.75499812404935,6.723333120346069,0.3418563306331634,8,5.64240726300745,17.917120956980057
Lakshmipura Lake,13.085595123900896,77.53040958036848,2.714729585903392,1.228236775871227,0.11618131879170733,1.1120554570795196,1.696233501594394,0.14684013417561845,1.5493933674187754,0.5890817568356382,1.5172526632805114,1.4508032135757745,1.103508205326554,0.792060373497058,81.43333143445973,7.368333339691162,0.7996875643730164,8,21.69946354489694,11.45852428461794
Lal Bahadur Shastri Nagar Lake,12.96802477519852,77.67691153377919,11.135766333396768,8.987983768892976,1.557853706319971,7.501669085464976,12.203027181801389,1.6862751759128944,10.59262768528608,0.8471229808049422,3.0031492563080633,5.743155798276515,4.7582264155010146,0.28759723732356995,81.65999789815396,7.086666504542033,2.06685733795166,1,7.607226619549068,29.21578695839022
Lalbagh Tank,12.946100391651873,77.58337938025863,12.405273321608002,10.436331146352433,9.418763209484824,1.1912516668247406,16.62676211994196,9.677395598475139,7.180242098757678,2.825870040737476,0.22841270872278144,1.3433646966881854,9.16693435935027,0.0458237858580646,82.41583149554208,7.633333206176758,1.0085248947143557,1,22.77958709555607,57.37975820772364
Lingadeeranahalli Lake,12.872038845153895,77.51410160549611,1.7507136425900918,0.6663091149079564,0.0,0.6663091149079564,1.1907281419527143,0.0,1.1907281419527143,0.42719059992272873,0.353971765557582,0.9764164094573374,1.8152510426500112,0.8020510393974497,85.75499812404935,6.723333120346069,0.2167661935091018,8,24.400940823807257,7.372196039101379
Lotus Pond,12.97720006805669,77.5964199762946,0.6497149484342688,0.2933561551107768,0.0,0.2933561551107768,1.0529524473516927,0.0,1.0529524473516927,0.0016143171946207669,0.0,0.610800416840198,2.4057936766441195,0.19883005014363309,82.41583149554208,7.633333206176758,0.3083465099334717,2,0.2484654537364529,2.2528853760698464
Madiwala Lake,12.906492240214549,77.6163313324215,82.73265795340143,70.44516221600448,53.63967759090698,17.674768616727924,81.91275328776344,53.74813924379087,29.04789280704423,1.390967899782268,3.925296802782046,20.244326642578702,15.343504792522372,0.0,81.65999789815396,7.086666504542033,0.0166721604764461,128,1.6812803241081906,65.80530556470313
Mahadevapura Lake,12.987433073351456,77.6924113575015,7.541746518874827,6.54282189383164,5.528156426412546,1.2079767047503107,8.906690467894808,5.636273414931453,3.485112414291482,0.7532679490382375,1.3379700885842516,1.1061523080693663,2.837963539834116,0.379052400986805,81.65999789815396,7.086666504542033,2.0666308403015137,1,9.987977548078868,48.10394109510117
Mallasandra Lake,13.05811650496105,77.51829399546942,4.4195419083599035,1.4023952121171142,0.0,1.4023952121171142,2.491978124482897,0.04256645095825192,2.449411673524645,0.007227313257354484,0.9648971126940359,3.3466856089024763,2.6165116477911448,0.739029627196147,81.43333143445973,7.368333339691162,0.0333246104419231,128,0.1635308230403577,4.571275493552394
Mallathahalli Lake,12.965140690150449,77.49451172119795,13.682834263344565,9.054826846223222,4.26648095358406,5.0369627831014,10.524212244451686,4.281573925616694,6.492869596427968,1.5144592516067605,3.4533831116365907,2.641277350434945,2.450063082124299,0.16154758138577727,85.83333125337958,8.099166552225748,0.0166682936251163,8,11.068315397665083,41.05579573016929
Mathikere Lake,13.034928880246378,77.5507698260525,4.307804776728011,2.4882617045074653,1.2984811504902558,1.2483129861599789,7.448728404840707,1.364450644873326,6.152063501519097,0.8960763215702033,0.8300522335097368,1.4188737569547163,8.998863039655498,0.174710571916648,81.43333143445973,7.368333339691162,5.215628147125244,128,20.801228653885687,13.629160730834505
Munekolala Lake,12.960898656256168,77.70829905177543,4.391107579288856,3.8566143015797922,2.9911528683606314,0.9880306136197361,5.931670928992477,3.092779289349325,2.979346077661951,0.2786552182041742,0.6659698759689829,0.9450364392000089,2.6562978104320845,0.6663646554768962,82.73174809043606,6.886666615804036,1.4667882919311523,4,6.345898231199854,30.2156531082187
Mylasandra Tank,12.908148528172022,77.49295163059372,3.159975451887542,1.5929125098673504,0.4133764278411865,1.1811508306630454,2.930428058458715,0.41499118436177573,2.5170516227338204,0.44512038854112806,0.7275753333322363,1.7624366642347349,2.7837083266404092,0.6060834605691773,85.83333125337958,8.099166552225748,0.0083360122516751,16,14.0861976720498,11.147726652166083
Nagaraesh Nagenahalli Lake,13.075660663342903,77.64288688017814,2.003710929688099,1.319088344217936,0.8536934627782286,0.4750770366673687,1.6381051979523702,0.8907577512105306,0.7570296019695008,0.5771824123666799,1.4202579814457115,0.4201798079606598,0.4602365093091579,0.8807188489084953,84.54749807839592,6.272499720255534,0.1416182219982147,4,28.805672705320077,13.008387768365296
Nagarbhavi Lake,12.96512245893655,77.5089551130528,0.8875362890984033,0.3895498007820479,0.03390225880940755,0.3588763274238935,1.2314208500900767,0.03477592713898303,1.199873708402347,0.15852710140103607,0.3844850975400637,0.463659995438819,1.432093451383504,0.9919072481572483,82.41583149554208,7.633333206176758,0.7750649452209473,4,17.861478268350535,4.872202306628524
Nagarbhavi Thorai,12.954774733612107,77.51466053851422,10.020582052830724,3.665370166905723,0.007097183765585884,3.658272983140137,19.756558154998473,0.18277351344189607,19.573784641556575,0.9738762327610587,7.622621436632445,4.320409423749839,27.761662191716127,0.9668325347094237,82.41583149554208,7.633333206176758,0.0083345156162977,2,9.718759126232069,2.778935933510433
Nagawara Lake,13.044991240812452,77.60938980078092,19.98963665112963,18.91986345222872,17.82657961397956,1.244400549239115,23.22876094392714,17.91243241074506,5.492242190052605,1.147063278475992,1.769804351999121,1.3283296872611448,6.25254994278303,0.059584190435254224,84.54749807839592,6.272499720255534,0.0333262644708156,128,5.7382897873292285,84.41969145840785
Nallurahalli Lake,12.974569026390734,77.73579529172873,9.336012037772388,5.683845503079783,5.067854111265295,0.6733413043806286,7.073167111328725,5.078692299016317,2.054205068329456,2.6686527773215105,1.7556581650957097,0.6412952861571465,4.075540609706806,0.15937998447964843,82.73174809043606,6.886666615804036,2.9501352310180664,1,28.584504459982064,42.67957032948379
Narsipura Lake,13.072648114030992,77.55874346146666,3.62940563165403,3.107410972702923,0.6022680771502327,2.521204045327878,6.120849839522915,0.6309604462816824,5.507640192674624,0.2447461870445301,0.5720713198613185,2.5677043282328085,4.247997266602859,0.6329818259961938,81.43333143445973,7.368333339691162,1.774384617805481,4,6.743423355878572,9.830816491479208
Nayandahalli Lake,12.93995517072385,77.52145065959428,3.386000341671215,2.552480326014999,1.0870115320766676,1.4677291679816156,3.4350960339360452,1.1549620963546654,2.284977596918742,1.3050962891013953,1.2022405169712638,1.4438847500650247,0.9378334690163804,0.7911278481868053,82.41583149554208,7.633333206176758,2.767028331756592,8,38.54389124063833,16.17784641263427
Palace Grounds Lake,13.002096101404215,77.586246223986,3.4066349163579006,2.4212769878183007,1.5603422874969282,0.8625488621306575,3.8280881956307398,1.5608930018107097,2.2688093556293163,0.9129623390058131,0.0014622368267782166,1.0654769715307897,4.6340596405911905,0.05215610646898473,81.43333143445973,7.368333339691162,0.0666633397340774,4,26.799535653849247,17.990444168603553
Palanahalli Lake,13.115942427181013,77.61676134583574,7.300010767986824,5.813645144637864,3.0822752464498886,3.232768908745262,7.367137124579934,3.0860146235985852,4.782901145034491,0.3737286804842482,1.5592226930311615,2.5242130376185,2.2606032870832453,0.4855230833612147,88.04574814951047,7.367499828338623,2.23214054107666,2,5.119563413840197,38.13486480062072
Panathur Chikka Kere,12.931470394744794,77.70863691702442,0.9048249040252087,0.4739722989754272,0.4691411493558198,0.0063887690031762005,0.8527020245381274,0.48599637158711745,0.36832025840958743,0.7324294394339766,0.9890313409079757,0.0029569435608308835,0.5095063952013402,0.6364627714311165,82.73174809043606,6.886666615804036,0.4251021146774292,16,80.94709110853242,22.087381236048092
Panathuru Kere,12.931615520659848,77.70685455116339,4.149419714241775,2.738648957746418,2.69067935862323,0.052477823999442265,4.448213682342231,2.7432141474405927,1.7114579465634214,2.8405956713413407,1.1980024835738636,0.03446386508517793,2.0423954177188253,0.43620193233153515,82.73174809043606,6.886666615804036,0.8001863956451416,2,68.45766075655723,30.840643579642744
Parappana Agrahara Lake,12.87883429836661,77.66108455466913,4.266016824660958,3.5163835114497775,2.656756277778476,2.2814122548855056,5.713318570951077,2.743437452434964,4.447549486664916,0.22723726352816317,0.8110646667111464,1.761155333884744,2.9587572818970522,0.44936500133144897,86.14666446531191,6.710833152135213,0.0083369724452495,64,5.326684653809889,28.62916178496752
Pattandur Agrahara Kunte,12.980070083643056,77.73830432096298,3.542872297399183,2.9210506783992796,0.9423835131456961,2.027096112956627,5.033045144115772,0.9427950012900159,4.138679090528799,0.10868986683515158,0.5950577406176399,2.145421002441606,3.1720238127799427,0.6919589933846426,82.73174809043606,6.886666615804036,0.8250246644020081,8,3.0678460218546584,15.097938106093553
Pattandur Agrahara Lake,12.976570169492676,77.74581432892995,4.518958124470431,1.956062654554579,0.0,1.956062654554579,3.334847279676051,0.015541853649164316,3.3193054260268866,0.121649794118046,0.8480000769262377,3.8957615008938866,3.420898686058693,0.5763816584918389,82.73174809043606,6.886666615804036,0.0250013396143913,4,2.691987638905194,5.4111020196708965
Puttenahalli Lake,13.111411030772032,77.57641471117208,8.443043142173627,7.125578666319015,1.9156160192781337,5.376851685257962,12.80448694563473,1.97019536559161,11.032747549027087,0.6931238058287178,0.8674462755340375,5.7463036219089565,7.755890904056817,0.4885363527911979,84.31574830661218,7.978333155314128,13.327052116394045,1,8.209407368375425,17.38601900496694
Puttenhalli Lake,12.890466255041181,77.58730179644434,3.3943293367572855,2.4458531587583248,1.4359560729008096,1.089715621773215,3.7957509059701557,1.4616102248716667,2.414883806378233,0.48473784100750694,1.8913543369083774,1.1780202607288237,1.440798465994044,0.8333430624043094,85.75499812404935,6.723333120346069,0.0917027369141578,4,14.280813466102645,13.229149169658678
Rachenahalli Lake,13.062687176080777,77.6138107751643,35.803149432612415,34.35527444268471,30.623142358219425,14.953271175515669,41.95805369970933,30.72357535117554,22.482450400027105,0.11111001601773927,1.6539626543755626,9.88089375586067,11.078959652282613,0.00612798148096975,84.54749807839592,6.272499720255534,0.0083309486508369,128,0.3103358720630628,88.95336835060994
Ramapura Kere,13.047130418706944,77.68706600729922,42.17642313589662,23.63302546267092,1.2560463888001285,22.773992989504944,29.089335653645623,1.26528024113973,28.222683204228506,1.7763416041535027,2.6650431442624756,10.505409603899283,7.583525935237112,0.0,84.54749807839592,6.272499720255534,224.14503479003903,2,4.211693339736169,28.924602230643135
Sampigehalli Lake,13.077681268458669,77.62364376174892,2.939476521618412,1.3709302163471893,0.617121175887164,0.8667666231880934,2.740314554196028,0.6758336427790823,2.1790521683088313,0.19565993250977756,0.6806562439009722,1.4476657814918468,2.3104005568276205,0.6023500337692645,84.54749807839592,6.272499720255534,0.0416520982980728,1,6.656284922529385,24.284150321369992
Sankey Tank,13.009638629490368,77.57421476509407,12.466672382181216,10.036376224384684,9.531783052333259,0.535875144239438,14.80569592922386,9.941547596317866,4.912571472350973,5.900208008510614,0.7590008003085268,0.5575106186830607,6.776217977865382,0.128917529836026,81.43333143445973,7.368333339691162,0.0666612982749939,2,47.32785002791813,74.00314097610908
Sarakki Kere,12.899023783834648,77.57894493153546,21.344024169523966,18.256094326431178,16.46087535188214,2.284651353661531,20.44159538087683,16.69693035524356,4.245255444003834,4.250059187972124,4.612818068707536,1.5946319731454281,2.8740650529479983,0.0958697533424479,85.17253034673199,6.882069052487712,4.952043056488037,2,19.91217379729435,72.38167741439405
Saul Kere,12.9184909204776,77.68019584780986,16.636939759192373,14.26335148795035,3.8257095521001876,11.049253835869584,18.696911217645386,3.988907682420818,15.35064929353552,0.09099248361525192,1.1417071477194394,6.925843245468638,6.205402584559622,0.03906172399562954,81.65999789815396,7.086666504542033,23.875478744506836,64,0.5469304146814382,32.63870153919991
Seegehalli Lake,13.017299233850062,77.71306597395127,7.764172207243678,7.007776987591915,5.582003499394834,5.340064342602002,10.077843226490396,5.68953167462966,8.350834272706274,0.0432507541142881,1.539317187382318,4.593265616281049,3.8040471398212694,0.4493628128358668,93.87749750073999,8.144999821980795,12.748985290527344,2,0.5570555747583341,45.646707425837725
Seetharampalya Lake,12.982165577171244,77.7130811596254,4.022266879365211,3.00597603712593,1.454471253458659,2.042247548585281,4.910470363241457,1.4763874198973415,3.9251295715960333,0.008495591645084934,0.5744203738238765,2.092885236882727,2.6073712895621504,0.5296201435402292,82.73174809043606,6.886666615804036,0.1500055491924286,64,0.2112140218409798,23.72254252457871
Sheelavathana Kere,12.964500799128748,77.74300191167788,4.4653079313719495,3.974582283332175,3.071014165393605,2.49274279056923,6.139495486399832,3.094856657383738,4.639663325857524,0.2742574918909011,1.5662174257819474,1.4041327645425232,2.5900122039236426,0.6585583095303907,82.73174809043606,6.886666615804036,5.875323295593262,8,6.141961452737628,28.628208697887985
Shivapura Old Lake,13.026819980150336,77.50471602919691,1.5449986989099835,0.7024643009599673,0.1621977192663056,0.5402665816936617,1.4303602244757359,0.18076828575134274,1.249591938724393,0.2964256363937278,0.7942341825861714,0.6604622452360663,1.2063941460433658,0.948227418587155,81.43333143445973,7.368333339691162,0.0333283133804798,8,19.18614149014235,9.609613177242728
Singapura Kere,13.082462806971572,77.53518207283888,8.072643583628338,4.33818812786227,1.4473791538747152,2.9263092393633277,5.689901226702921,1.4538970488230387,4.2715044432556555,0.6289181673720615,1.8847728815156028,3.387204129877526,2.4649724732537366,0.48104915248167046,81.43333143445973,7.368333339691162,2.299147367477417,8,7.79073373990565,21.323335206241783
Singasandra Lake,12.882218148493388,77.64546471624104,2.0081188734436033,1.757642381574344,1.2174126622163859,0.8233530282413256,2.9281903866357744,1.3334141367320143,1.9193744956516439,0.2593300966250351,1.4846959611486301,0.7660837021776584,1.2837310784976936,0.8579390096284417,86.14666446531191,6.710833152135213,0.9920964241027832,32,12.914080936868311,11.438996080308534
Somasundarapalya Lake,12.898483924287731,77.64804602911603,2.4274632010785275,1.7898904080663944,1.7651868876732724,0.0263119963382895,2.0560049279441084,1.8102052617390951,0.2490292832602706,0.9563745038584789,1.7778897582933013,0.03203036650763611,0.3140967912930756,0.7069823099657756,85.97969674201143,6.724819491046849,0.4751774072647095,64,39.398105126106934,24.208266066935987
Srigandakaval Lake,12.984127976947043,77.50060904903768,0.608447892040178,0.20940602129718058,0.026872900403091315,0.18253312089408924,0.5377110406065299,0.03108267390681245,0.5066283666997174,0.14895620330511353,0.6221596769026214,0.2514024232767143,0.944311717293434,0.45233451781690587,83.40995332043663,7.768840193414698,0.1166681125760078,2,24.481341007797823,5.715512109442602
Subedharana Lake,12.859897951377215,77.61652482974566,3.478791661783854,3.0250880524659,1.878671233024348,2.1658781066600326,5.021918557400673,1.8921490642896666,4.150484826159508,0.10257814960654262,0.6796024345457786,2.03690797242657,3.3143348083640713,0.4963563831149213,86.14666446531191,6.710833152135213,0.5252687335014343,2,2.9486718257207336,24.22699015829288
Subramanyapura Lake,12.89621448522282,77.54290626308375,3.656729347109326,2.15271550279904,1.0387385073184343,1.1169343384542025,3.3723282689402456,1.101311450322469,2.2790909449249463,0.5710030279765409,1.57300699497198,1.7158076523071493,1.549790595958436,0.7768531945485607,85.75499812404935,6.723333120346069,1.575626254081726,32,15.615129635665362,19.301040966381752
Subrayana Lake,12.86362129366551,77.58491711006387,1.036166656589882,0.5398831451116824,0.03876076787312823,0.5091975435593551,1.546212351976781,0.04073681749231673,1.5135507008052649,0.08754102796018513,0.3551878274461335,0.642326754849004,2.224713202390484,0.5869866016104288,85.75499812404935,6.723333120346069,0.1834243834018707,2,8.448547094565903,7.168597289173472
Sunkalpalya Lake,12.906420778990842,77.4961879176173,5.147789339378209,3.849525838886836,2.2879233198891433,2.0475828435446544,5.9285566315784335,2.2886452168004654,4.125955063179864,0.1687459598406623,0.1398199361339893,2.175003362851112,4.642138133779787,0.18835922595549762,85.83333125337958,8.099166552225748,0.0166721101850271,8,3.278027687532466,25.728565693758345
Thalaghattapura Lake,12.866807330378649,77.53137701574505,4.068044733416987,2.6322167268506216,0.5555641212463379,2.0944177329134472,3.601205424716426,0.5555641212463379,3.0634064307792515,0.6704453129722245,1.0862179985195983,1.7619916285705564,2.3923734912982018,0.6509409419866817,85.75499812404935,6.723333120346069,0.1584100276231765,1,16.480775333290858,15.583393031360584
Thippasandra Lake,12.870760238967572,77.55568900091396,0.5544916768062818,0.1425052252326915,0.04198968327840169,0.1005155419542898,0.594163013912525,0.04198968327840169,0.5521733306341233,0.14734388362809717,0.44471101515875927,0.12027537906073273,0.7032408767346152,0.9579070005633227,85.75499812404935,6.723333120346069,0.0083372443914413,16,26.5727854522104,10.768125176825402
Thirumenahalli Lake,13.092869503257324,77.62884158544712,5.657482298874203,3.197523936382119,2.5355195908036574,0.7055710573857127,4.508463705251358,2.5562494063867307,1.9957810106718774,1.4836791429462306,0.8600763018724028,0.5114796711082708,2.750200463268803,0.459475085599442,84.54749807839592,6.272499720255534,1.4327305555343628,8,26.2250779510432,33.02350014307814
Thubarahalli Lake,12.958444143908915,77.72553487221501,6.992327767746869,5.529040623194377,4.742602604871762,0.8927627091775531,7.21746363312715,4.866958129256005,2.471790628643161,1.8881367557251372,1.3827341698311202,0.8269508192174574,2.5713567519393616,0.2770012029998208,82.73174809043606,6.886666615804036,0.1583534926176071,128,27.002978384886976,44.0296642048599
Ullal Lake,12.961146179077367,77.48087915284997,9.844569769619213,5.498905895271551,1.5950468649546305,4.000724318097682,7.781705565131194,1.5986112383409887,6.279959614570966,0.38362951023376063,0.7503662477071925,3.69449899864845,4.644846283348929,0.5324347787807223,85.83333125337958,8.099166552225748,2.800201654434204,4,3.896864151622539,20.317425824485134
Uttarahalli Lake,12.908191284483792,77.54164248615375,3.796415229046391,3.489106189102971,2.370957133980545,2.133980723879945,4.9420351581668225,2.4131940830908882,3.557438803932339,0.0437186012048659,1.1232534342966514,2.2996857620014866,1.8039318330697451,0.8014189517144769,82.41583149554208,7.633333206176758,0.0083360122516751,8,1.1515758568866403,16.212537723773043
Varthur Lake,12.947211292040189,77.73629477017032,154.43985890591773,87.93607574267519,11.292367554717218,79.40971098284052,102.45549448821127,11.319060795732385,93.91984153486068,4.614320634530758,6.151737422658383,33.49482387321928,19.14642728039211,0.0,82.73174809043606,6.886666615804036,0.1833599358797073,8,2.987778328224016,24.55143631968488
Vasanthapura Lake,12.891151232313254,77.55654516478079,1.8108462402672865,1.030178747891694,0.0,1.030178747891694,2.0082950366759458,0.002729427509681833,2.0055656091662635,0.011886649286606701,1.2467736866610661,1.48730419492734,1.3662264333847147,1.0,85.75499812404935,6.723333120346069,0.5835646390914917,32,0.6564140578192986,2.2557130319680847
Veerasagara Lake,13.101982746998315,77.55655652664406,6.538603706129483,4.089377151033489,3.066137159472696,1.076119350497177,6.167512965312284,3.0836012039932554,3.13877164761562,0.40451298503052957,1.5384748576833687,1.588138968178743,3.432249595060162,0.25051314637001376,84.31574830661218,7.978333155314128,0.0166592039167881,128,6.186534667200077,34.29543231871868
Vengayyana Lake,13.016536819104063,77.69922956789692,14.154800670462194,8.128196603746604,0.06294861005147297,8.081388663708557,11.669388051012326,0.08036785950953661,11.605160861516216,1.0489108426566534,2.5330074565767773,9.23629421523749,6.217981962786406,0.25028327176586523,86.9107461149934,6.746795804168804,5.749464511871338,2,7.410283387780151,10.853043388423488
Vidyaranyapura Kere,13.07620395182488,77.55462755408443,1.8493621418133899,1.5847110641534343,0.0,1.5847110641534343,2.607011605677885,0.005758646567849533,2.601252959110036,0.0,0.5945516614602284,1.7465797112294112,1.806439724126081,0.8872503118703111,81.43333143445973,7.368333339691162,0.0249913409352302,4,0.0,4.0143550181069
Vijinapura Lake,13.009010916747561,77.67658852687461,1.673324603711296,0.8602792031680836,0.7566909884987626,0.17138113967745908,1.4295434496227586,0.7570201404571533,0.7403162341737435,0.11546920882281131,1.4133671075838372,0.3082012441158917,1.0395173496570462,0.7330698457154092,84.54749807839592,6.272499720255534,1.1915875673294067,128,6.900586327763909,8.089234661219399
Vrishabhavati,12.920521985102395,77.50049244727587,33.729295355027205,12.40283602752384,0.07118335164288282,12.331652675880958,49.98401244807025,0.482509136677661,49.50150331139258,5.503107395773493,27.623369846235306,13.67904985327076,50.51361779604284,1.0,83.5421025162649,7.786853216511243,0.0083355968818068,64,16.31551248802854,11.432261378529784
Yediyur Lake,12.933624252081572,77.5766528097287,3.8840622334858015,3.688303908817566,3.0587907022079768,0.6967181791851568,5.853940496008879,3.1456241579606803,2.7809729425607315,0.2950841232254926,0.7763721985990238,0.7811012973650765,2.479234135688332,0.6793743530199571,82.41583149554208,7.633333206176758,0.0916879028081893,64,7.597306775403173,24.525792194966073
Yelachenahalli Kere,12.899552724818951,77.56561653883097,1.5494923143813193,1.1779982704446834,0.9857855616181818,0.2255347473528494,1.9716469819571303,1.0338877492493275,0.9926626855174544,0.5848131286296968,1.1416299044196436,0.23448901468813024,0.9056401801968242,0.9080807242943999,84.59682577789019,7.038961853998903,0.5502026081085205,64,37.742241326521246,12.114101875350611
Yelahanka Lake,13.11353974982512,77.59347334803519,96.00122626501349,90.72614112517316,86.33840447454963,4.985338876306872,102.74724735550227,86.59226099757875,16.832627867297507,9.831634160923672,4.706599811856138,4.620692379362818,15.855418455124399,0.0,84.31574830661218,7.978333155314128,0.008329258300364,64,10.241154767943517,93.57719018464384
Yelenahalli Lake,12.86663700135948,77.61409749446442,1.203013886649936,0.40778780018825156,0.2309913173575806,0.18164152817470577,1.391672907464021,0.25262611310323074,1.1438918397048252,0.5459504751472225,0.5052076411418042,0.2154427963291741,1.3302702471365337,0.9574298768216357,86.14666446531191,6.710833152135213,0.1500739902257919,64,45.38189302764783,8.884333573781069
Yellamallappa Chetty Lake,13.025697874172101,77.72832072308441,137.53985920500804,116.33843951534347,80.27268836879007,37.92980510618872,128.95189257256348,80.60182708889182,50.37613492282147,0.7948625611244152,6.897444523514394,26.742919293850175,21.328574082559317,0.0,93.87749750073999,8.144999821980795,267.27490234375,4,0.5779143338656791,90.41842513973992
